{
  "34": {
    "org_id": 7,
    "name": "Telehouse - London (Docklands North)",
    "address1": "14 Coriander Avenue",
    "address2": "",
    "city": "London",
    "country": "GB",
    "postcode": "E14 2AA",
    "latitude": 51.5117501,
    "longitude": -0.0017365
  },
  "39": {
    "org_id": 7,
    "name": "Telehouse - London (Docklands East)",
    "address1": "14 Coriander Avenue",
    "address2": "",
    "city": "London",
    "country": "GB",
    "postcode": "E14 2AA",
    "latitude": 51.5117501,
    "longitude": -0.0017365
  },
  "40": {
    "org_id": 73,
    "name": "Interxion London (Sovereign House)",
    "address1": "Sovereign House",
    "address2": "227 Marsh Wall",
    "city": "London",
    "country": "GB",
    "postcode": "E14 9SD",
    "latitude": 51.499819,
    "longitude": -0.010775
  },
  "43": {
    "org_id": 73,
    "name": "Interxion London (Cloud House)",
    "address1": "Cloud House",
    "address2": "Millharbour 47",
    "city": "London",
    "country": "GB",
    "postcode": "E14 9TR",
    "latitude": 51.496902,
    "longitude": -0.018933
  },
  "45": {
    "org_id": 2,
    "name": "Equinix LD8 - London, Docklands",
    "address1": "6-9 Harbour Exchange Square",
    "address2": "",
    "city": "London",
    "country": "GB",
    "postcode": "E14 9GE",
    "latitude": 51.498842,
    "longitude": -0.014327
  },
  "46": {
    "org_id": 73,
    "name": "Interxion London (LON1, LON2 & LON3)",
    "address1": "11 Hanbury Street",
    "address2": "",
    "city": "London",
    "country": "GB",
    "postcode": "E1 6QR",
    "latitude": 51.520397,
    "longitude": -0.073777
  },
  "79": {
    "org_id": 73,
    "name": "Interxion London (Sovereign House North)",
    "address1": "Memaco House, Meridian Gate",
    "address2": "215 Marsh Wall",
    "city": "London",
    "country": "GB",
    "postcode": "E14 9FJ",
    "latitude": 51.500621,
    "longitude": -0.011758
  },
  "399": {
    "org_id": 2,
    "name": "Equinix LD4 - London, Slough",
    "address1": "2 Buckingham Avenue",
    "address2": "",
    "city": "Slough",
    "country": "GB",
    "postcode": "SL1 4NB",
    "latitude": 51.523805,
    "longitude": -0.635545
  },
  "534": {
    "org_id": 2,
    "name": "Equinix LD9 - London, Powergate",
    "address1": "Unit 1, Powergate Business Park",
    "address2": "Volt Avenue",
    "city": "London",
    "country": "GB",
    "postcode": "NW10 6PW",
    "latitude": 51.530547,
    "longitude": -0.257425
  },
  "832": {
    "org_id": 2,
    "name": "Equinix LD5 - London, Slough",
    "address1": "8 Buckingham Avenue",
    "address2": "",
    "city": "Slough",
    "country": "GB",
    "postcode": "SL1 4AX",
    "latitude": 51.522463,
    "longitude": -0.62905
  },
  "2262": {
    "org_id": 2,
    "name": "Equinix LD6 - London, Slough",
    "address1": "352 Buckingham Avenue",
    "address2": "",
    "city": "Slough",
    "country": "GB",
    "postcode": "SL1 4PF",
    "latitude": 51.524335,
    "longitude": -0.63804
  },
  "835": {
    "org_id": 7,
    "name": "Telehouse - London (Docklands West)",
    "address1": "14 Coriander Avenue",
    "address2": "",
    "city": "London",
    "country": "GB",
    "postcode": "E14 2AA",
    "latitude": 51.5117501,
    "longitude": -0.0017365
  },
  "4404": {
    "org_id": 3844,
    "name": "VIRTUS LONDON2 (Hayes)",
    "address1": "VIRTUS Data Centre",
    "address2": "Western International Park, Hayes Road",
    "city": "Hayes",
    "country": "GB",
    "postcode": "UB2 5XX",
    "latitude": 51.515786,
    "longitude": -0.140295
  },
  "4360": {
    "org_id": 7,
    "name": "Telehouse - London (Docklands North Two)",
    "address1": "14 Coriander Avenue",
    "address2": "",
    "city": "London",
    "country": "GB",
    "postcode": "E14 2AA",
    "latitude": 51.5117501,
    "longitude": -0.0017365
  },
  "4089": {
    "org_id": 118,
    "name": "COLT DC London II",
    "address1": "Powergate, Volt Avenue",
    "address2": "",
    "city": "London",
    "country": "GB",
    "postcode": "NW10 6PN",
    "latitude": 51.530547,
    "longitude": -0.257425
  },
  "3152": {
    "org_id": 2,
    "name": "Equinix LD10 - London, Slough",
    "address1": "13 Liverpool Road",
    "address2": "",
    "city": "Slough",
    "country": "GB",
    "postcode": "SL1 4PF",
    "latitude": 51.522042,
    "longitude": -0.623736
  },
  "6535": {
    "org_id": 2,
    "name": "Equinix LD7 -  London, Slough",
    "address1": "6 Banbury Ave",
    "address2": "",
    "city": "Slough",
    "country": "GB",
    "postcode": "SL1 4LH",
    "latitude": 51.525866,
    "longitude": -0.634279
  },
  "3399": {
    "org_id": 73,
    "name": "Interxion London (Oliver\u2019s Yard)",
    "address1": "55-71 CITY RD",
    "address2": "",
    "city": "London",
    "country": "GB",
    "postcode": "EC1Y 1HQ",
    "latitude": 51.524422,
    "longitude": -0.086892
  },
  "896": {
    "org_id": 1813,
    "name": "aql Salem Church",
    "address1": "11-15 Hunslet Road",
    "address2": "",
    "city": "Leeds",
    "country": "GB",
    "postcode": "LS10 1JQ",
    "latitude": 53.793329,
    "longitude": -1.54109
  },
  "76": {
    "org_id": 2,
    "name": "Equinix MA1 - Manchester, Williams/Kilburn",
    "address1": "Manchester Science Park",
    "address2": "Lloyd Street North",
    "city": "Manchester",
    "country": "GB",
    "postcode": "M15 6SE",
    "latitude": 53.463112,
    "longitude": -2.236869
  },
  "1054": {
    "org_id": 6238,
    "name": "M247 Ball Green",
    "address1": "1-3 Ball Green",
    "address2": "Cobra Court",
    "city": "Manchester",
    "country": "GB",
    "postcode": "M32 0QT",
    "latitude": 53.461177,
    "longitude": -2.326691
  },
  "1403": {
    "org_id": 2,
    "name": "Equinix MA3 - Manchester, Joule House",
    "address1": "76 Trafford Park Road",
    "address2": "Trafford Park",
    "city": "Manchester",
    "country": "GB",
    "postcode": "M17 1HE",
    "latitude": 53.468674,
    "longitude": -2.310421
  },
  "601": {
    "org_id": 2455,
    "name": "Teledata Manchester - Delta House",
    "address1": "Delta House",
    "address2": "Wavell Road",
    "city": "Manchester",
    "country": "GB",
    "postcode": "M22 5QZ",
    "latitude": 53.37912,
    "longitude": -2.258538
  },
  "271": {
    "org_id": 7980,
    "name": "Pulsant Edinburgh South Gyle",
    "address1": "The Clocktower Estate, Flassches Yard",
    "address2": "South Gyle Crescent",
    "city": "Edinburgh",
    "country": "GB",
    "postcode": "EH129LB",
    "latitude": 55.930562,
    "longitude": -3.295901
  },
  "2992": {
    "org_id": 14436,
    "name": "DataVita Glasgow (DC1/DC2)",
    "address1": "Unit 1 York Road",
    "address2": "Chapelhall",
    "city": "Glasgow",
    "country": "GB",
    "postcode": "ML6 8HW",
    "latitude": 55.834442,
    "longitude": -3.95252
  },
  "1817": {
    "org_id": 9254,
    "name": "BT Empire Exchange / Stadium House ",
    "address1": "5  Park Street",
    "address2": "",
    "city": "Cardiff",
    "country": "GB",
    "postcode": "CF10 1NT",
    "latitude": 51.478187,
    "longitude": -3.180582
  },
  "1548": {
    "org_id": 8100,
    "name": "NGD Newport",
    "address1": "Celtic Way",
    "address2": "Duffryn",
    "city": "Newport",
    "country": "GB",
    "postcode": "NP10 8UW",
    "latitude": 51.5548,
    "longitude": -3.0382
  },
  "2807": {
    "org_id": 14113,
    "name": "DC01 -Baltic Creative",
    "address1": "49 Jamaica St",
    "address2": "",
    "city": "Liverpool",
    "country": "GB",
    "postcode": "L1 0AH",
    "latitude": 53.395362,
    "longitude": -2.980006
  },
  "1206": {
    "org_id": 11042,
    "name": "AIMES DC2 Kilby House",
    "address1": "Kilby House",
    "address2": "Liverpool Innovation Park",
    "city": "Liverpool",
    "country": "GB",
    "postcode": "L7 9NJ",
    "latitude": 53.408775,
    "longitude": -2.933413
  },
  "4762": {
    "org_id": 14113,
    "name": "DC02 - The Tapestry",
    "address1": "68-76 Kempston St",
    "address2": "",
    "city": "Liverpool",
    "country": "GB",
    "postcode": "L3 8ET",
    "latitude": 53.410527,
    "longitude": -2.971513
  },
  "78": {
    "org_id": 2,
    "name": "Equinix MA2 - Manchester, Reynolds House",
    "address1": "Reynolds House",
    "address2": "Technopark4 Archway",
    "city": "Manchester",
    "country": "GB",
    "postcode": "M15 5RN",
    "latitude": 53.464349,
    "longitude": -2.247614
  },
  "2907": {
    "org_id": 2,
    "name": "Equinix MA4 - Manchester, Synergy House",
    "address1": "Synergy House",
    "address2": "Manchester Science Park",
    "city": "Manchester",
    "country": "GB",
    "postcode": "M15 6SY",
    "latitude": 53.461506,
    "longitude": -2.238131
  },
  "4974": {
    "org_id": 9411,
    "name": "Epsilon Global Hubs London",
    "address1": "Telephone House",
    "address2": "69-77 Paul Street",
    "city": "London",
    "country": "GB",
    "postcode": "EC2A 4NW",
    "latitude": 51.525318,
    "longitude": -0.08416
  },
  "1827": {
    "org_id": 9283,
    "name": "Legend Bradford",
    "address1": "167-169 Sunbridge Road",
    "address2": "",
    "city": "Bradford",
    "country": "GB",
    "postcode": "BD1 2HB",
    "latitude": 53.79512,
    "longitude": -1.762407
  },
  "9234": {
    "org_id": 27246,
    "name": "Legend Data Centres",
    "address1": "The Legend Building",
    "address2": "173 Sunbridge Road",
    "city": "Bradford",
    "country": "GB",
    "postcode": "BD1 2HB",
    "latitude": 53.795297,
    "longitude": -1.762567
  },
  "8389": {
    "org_id": 25688,
    "name": "Stellium 1",
    "address1": "9 Cobalt Park Way",
    "address2": "Cobalt Business Park",
    "city": "Newcastle",
    "country": "GB",
    "postcode": "NE28 9EJ",
    "latitude": 55.016869,
    "longitude": -1.500107
  },
  "8390": {
    "org_id": 25688,
    "name": "Stellium 2 & 3",
    "address1": "9 Cobalt Park Way",
    "address2": "Cobalt Business Park",
    "city": "Newcastle",
    "country": "GB",
    "postcode": "NE28 9EJ",
    "latitude": 55.016869,
    "longitude": -1.500107
  }
  
}
