{
  "34": {
    "org_id": 7,
    "name": "Telehouse - London (Docklands North)",
    "address1": "14 Coriander Avenue",
    "address2": "",
    "city": "London",
    "country": "GB",
    "postcode": "E14 2AA",
    "latitude": 51.5117576,
    "longitude": -0.0017405
  },
  "35": {
    "org_id": 73,
    "name": "Interxion London (West Drayton)",
    "address1": "Unit 1",
    "address2": "Airport Gate Bath Road",
    "city": "West Drayton",
    "country": "GB",
    "postcode": "UB7 0NA",
    "latitude": 51.482248,
    "longitude": -0.460224
  },
  "39": {
    "org_id": 7,
    "name": "Telehouse - London (Docklands East)",
    "address1": "14 Coriander Avenue",
    "address2": "",
    "city": "London",
    "country": "GB",
    "postcode": "E14 2AA",
    "latitude": 51.5117576,
    "longitude": -0.0017405
  },
  "40": {
    "org_id": 73,
    "name": "Interxion London (Sovereign House)",
    "address1": "Sovereign House",
    "address2": "227 Marsh Wall",
    "city": "London",
    "country": "GB",
    "postcode": "E14 9SD",
    "latitude": 51.499819,
    "longitude": -0.010775
  },
  "43": {
    "org_id": 73,
    "name": "Interxion London (Cloud House)",
    "address1": "Cloud House",
    "address2": "Millharbour 47",
    "city": "London",
    "country": "GB",
    "postcode": "E14 9TR",
    "latitude": 51.496902,
    "longitude": -0.018933
  },
  "45": {
    "org_id": 2,
    "name": "Equinix LD8 - London, Docklands",
    "address1": "6-9 Harbour Exchange Square",
    "address2": "",
    "city": "London",
    "country": "GB",
    "postcode": "E14 9GE",
    "latitude": 51.498842,
    "longitude": -0.014327
  },
  "46": {
    "org_id": 73,
    "name": "Interxion London (LON1, LON2 & LON3)",
    "address1": "11 Hanbury Street",
    "address2": "",
    "city": "London",
    "country": "GB",
    "postcode": "E1 6QR",
    "latitude": 51.520397,
    "longitude": -0.073777
  },
  "47": {
    "org_id": 77,
    "name": "Global Switch London East",
    "address1": "3 Nutmeg Lane",
    "address2": "",
    "city": "London",
    "country": "GB",
    "postcode": "E14 2AX",
    "latitude": 51.510985,
    "longitude": -0.003494
  },
  "48": {
    "org_id": 77,
    "name": "Global Switch London North",
    "address1": "240 East India Dock Road",
    "address2": "",
    "city": "London",
    "country": "GB",
    "postcode": "E14 944",
    "latitude": 51.511364,
    "longitude": -0.010634
  },
  "50": {
    "org_id": 2,
    "name": "Equinix LD1 - No longer operational",
    "address1": "101 Finsbury Pavement",
    "address2": "",
    "city": "London",
    "country": "GB",
    "postcode": "EC2A 1 RS",
    "latitude": 51.519453,
    "longitude": -0.087837
  },
  "51": {
    "org_id": 86,
    "name": "Exchange Tower London",
    "address1": "1&2 Harbour Exchange Square",
    "address2": "",
    "city": "London",
    "country": "GB",
    "postcode": "E14 9GE",
    "latitude": 51.4989152,
    "longitude": -0.0155917
  },
  "76": {
    "org_id": 2,
    "name": "Equinix MA1 - Manchester, Williams/Kilburn",
    "address1": "Manchester Science Park",
    "address2": "Lloyd Street North",
    "city": "Manchester",
    "country": "GB",
    "postcode": "M15 6SE",
    "latitude": 53.463112,
    "longitude": -2.236869
  },
  "78": {
    "org_id": 2,
    "name": "Equinix MA2 - Manchester, Reynolds House",
    "address1": "Reynolds House",
    "address2": "Technopark4 Archway",
    "city": "Manchester",
    "country": "GB",
    "postcode": "M15 5RN",
    "latitude": 53.464349,
    "longitude": -2.247614
  },
  "79": {
    "org_id": 73,
    "name": "Interxion London (Sovereign House North)",
    "address1": "Memaco House, Meridian Gate",
    "address2": "215 Marsh Wall",
    "city": "London",
    "country": "GB",
    "postcode": "E14 9FJ",
    "latitude": 51.500621,
    "longitude": -0.011758
  },
  "91": {
    "org_id": 118,
    "name": "COLT DC London",
    "address1": "Welwyn Garden City, 20 Black Fan Road",
    "address2": "",
    "city": "London",
    "country": "GB",
    "postcode": "AL7 1QA",
    "latitude": 51.799899,
    "longitude": -0.183762
  },
  "243": {
    "org_id": 7980,
    "name": "Pulsant Newcastle Central",
    "address1": "5 Bridge View",
    "address2": "Stepney Ln",
    "city": "Newcastle upon Tyne",
    "country": "GB",
    "postcode": "NE1 6PN",
    "latitude": 54.972886,
    "longitude": -1.603213
  },
  "244": {
    "org_id": 3079,
    "name": "ServerBank Manchester",
    "address1": "Faulkner Street",
    "address2": "",
    "city": "Manchester",
    "country": "GB",
    "postcode": "M1 4EH",
    "latitude": 53.4792048,
    "longitude": -2.2386664
  },
  "248": {
    "org_id": 682,
    "name": "Level(3) London Braham Street",
    "address1": "6 Braham St",
    "address2": "",
    "city": "London",
    "country": "GB",
    "postcode": "E1 8EE",
    "latitude": 51.513915,
    "longitude": -0.0725
  },
  "254": {
    "org_id": 9597,
    "name": "City Lifeline London",
    "address1": "80 Clifton Street",
    "address2": "",
    "city": "London",
    "country": "GB",
    "postcode": "EC2A 4HB",
    "latitude": 51.522955,
    "longitude": -0.082993
  },
  "271": {
    "org_id": 7980,
    "name": "Pulsant Edinburgh South Gyle",
    "address1": "The Clocktower Estate, Flassches Yard",
    "address2": "South Gyle Crescent",
    "city": "Edinburgh",
    "country": "GB",
    "postcode": "EH129LB",
    "latitude": 55.930562,
    "longitude": -3.295901
  },
  "305": {
    "org_id": 1215,
    "name": "iomart DC1 Glasgow",
    "address1": "88 Middlesex Street",
    "address2": "",
    "city": "Glasgow",
    "country": "GB",
    "postcode": "G41 1EE",
    "latitude": 55.851165,
    "longitude": -4.283217
  },
  "334": {
    "org_id": 7980,
    "name": "Pulsant Maidenhead",
    "address1": "BlueSquare House",
    "address2": "Priors Way",
    "city": "Maidenhead",
    "country": "GB",
    "postcode": "SL6 2HP",
    "latitude": 51.500351,
    "longitude": -0.708278
  },
  "335": {
    "org_id": 20538,
    "name": "The Bunker (Ash)",
    "address1": "Ash Radar Station",
    "address2": "Marshborough Road",
    "city": "Sandwich",
    "country": "GB",
    "postcode": "CT13 0PL",
    "latitude": 51.271106,
    "longitude": 1.295809
  },
  "352": {
    "org_id": 621,
    "name": "London Hosting Centre",
    "address1": "City Reach, 6 Greenwich View Place",
    "address2": "Millharbour",
    "city": "London",
    "country": "GB",
    "postcode": "E14 9NN",
    "latitude": 51.494644,
    "longitude": -0.018318
  },
  "354": {
    "org_id": 682,
    "name": "Level(3) London Goswell Road",
    "address1": "260-266 Goswell Road",
    "address2": "Islington",
    "city": "London",
    "country": "GB",
    "postcode": "EC1V 7EB",
    "latitude": 51.528721,
    "longitude": -0.100964
  },
  "398": {
    "org_id": 2,
    "name": "Equinix LD3 - London, Park Royal",
    "address1": "Matrix Unit 11, 900 Coronation Road",
    "address2": "Park Royal",
    "city": "London",
    "country": "GB",
    "postcode": "NW10 7PH",
    "latitude": 51.528788,
    "longitude": -0.27746
  },
  "399": {
    "org_id": 2,
    "name": "Equinix LD4 - London, Slough",
    "address1": "2 Buckingham Avenue",
    "address2": "",
    "city": "Slough",
    "country": "GB",
    "postcode": "SL1 4NB",
    "latitude": 51.523805,
    "longitude": -0.635545
  },
  "418": {
    "org_id": 581,
    "name": "TATA Communications Stratford",
    "address1": "78 - 102 The Broadway",
    "address2": "Stratford",
    "city": "London",
    "country": "GB",
    "postcode": "E15 1NG",
    "latitude": 51.542392,
    "longitude": 0.002415
  },
  "428": {
    "org_id": 1215,
    "name": "iomart DC2 London",
    "address1": "Epworth Street",
    "address2": "",
    "city": "London",
    "country": "GB",
    "postcode": "EC2A 4DN",
    "latitude": 51.5233167,
    "longitude": -0.0859255
  },
  "438": {
    "org_id": 782,
    "name": "Synergy House Manchester",
    "address1": "1 Synergy House, Manchester Science Park",
    "address2": "Pencroft Way",
    "city": "Manchester",
    "country": "GB",
    "postcode": "M15 6SY",
    "latitude": null,
    "longitude": null
  },
  "534": {
    "org_id": 2,
    "name": "Equinix LD9 - London, Powergate",
    "address1": "Unit 1, Powergate Business Park",
    "address2": "Volt Avenue",
    "city": "London",
    "country": "GB",
    "postcode": "NW10 6PW",
    "latitude": 51.530547,
    "longitude": -0.257425
  },
  "565": {
    "org_id": 971,
    "name": "Kent Science Park",
    "address1": "Kent Science Park",
    "address2": "Sittingbourne",
    "city": "Kent",
    "country": "GB",
    "postcode": "ME9 8PX",
    "latitude": 51.312671,
    "longitude": 0.725281
  },
  "571": {
    "org_id": 983,
    "name": "SloughIX",
    "address1": "Slough Interchange",
    "address2": "",
    "city": "Slough",
    "country": "GB",
    "postcode": "SL2 5EP",
    "latitude": 51.511977,
    "longitude": -0.588081
  },
  "601": {
    "org_id": 2455,
    "name": "Teledata Manchester - Delta House",
    "address1": "Delta House",
    "address2": "Wavell Road",
    "city": "Manchester",
    "country": "GB",
    "postcode": "M22 5QZ",
    "latitude": 53.37912,
    "longitude": -2.258538
  },
  "631": {
    "org_id": 57,
    "name": "Rackspace Slough",
    "address1": "115 Buckingham Avenue",
    "address2": "",
    "city": "Slough",
    "country": "GB",
    "postcode": "SL1 4PF",
    "latitude": 51.520432,
    "longitude": -0.618277
  },
  "632": {
    "org_id": 7980,
    "name": "Pulsant Reading Central",
    "address1": "Rose Kiln Lane",
    "address2": "",
    "city": "Reading",
    "country": "GB",
    "postcode": "RG2 0HP",
    "latitude": 51.4436447,
    "longitude": -0.9767897
  },
  "633": {
    "org_id": 7980,
    "name": "Pulsant Reading East",
    "address1": "Unit 53 Suttons Business Park",
    "address2": "",
    "city": "Reading",
    "country": "GB",
    "postcode": "RG6 1AZ",
    "latitude": 51.457714,
    "longitude": -0.943472
  },
  "656": {
    "org_id": 20538,
    "name": "The Bunker (Newbury)",
    "address1": "Venture West",
    "address2": "Greenham Business Park",
    "city": "Thatcham",
    "country": "GB",
    "postcode": "RG19 6HX",
    "latitude": 51.373297,
    "longitude": -1.277122
  },
  "676": {
    "org_id": 1215,
    "name": "iomart DC3 Nottingham",
    "address1": "2-6 Fisher Gate",
    "address2": "",
    "city": "Nottingham",
    "country": "GB",
    "postcode": "NG1 1FY",
    "latitude": 52.950916,
    "longitude": -1.138982
  },
  "677": {
    "org_id": 1215,
    "name": "iomart DC4 Leicester",
    "address1": "16 Berkley Street",
    "address2": "",
    "city": "Leicester",
    "country": "GB",
    "postcode": "LE1 4AT",
    "latitude": 52.64041015,
    "longitude": -1.1402507872310066
  },
  "734": {
    "org_id": 7980,
    "name": "Pulsant Milton Keynes",
    "address1": "Rockingham Drive",
    "address2": "",
    "city": "Milton Keynes",
    "country": "GB",
    "postcode": " MK14 6LY",
    "latitude": 52.0568192,
    "longitude": -0.7569669
  },
  "745": {
    "org_id": 1218,
    "name": "Gigastream Oxford 1",
    "address1": "Unit 4, Oxford Business Centre",
    "address2": "Osney Lane",
    "city": "Oxford",
    "country": "GB",
    "postcode": "OX1 1TB",
    "latitude": 51.749144,
    "longitude": -1.268159
  },
  "764": {
    "org_id": 782,
    "name": "The UK Grid Network LTD (Greenheys DC)",
    "address1": "Greenheys, Manchester Science Park",
    "address2": "Pencroft Way",
    "city": "Manchester",
    "country": "GB",
    "postcode": "M15 6SY",
    "latitude": 53.463125,
    "longitude": -2.238537
  },
  "832": {
    "org_id": 2,
    "name": "Equinix LD5 - London, Slough",
    "address1": "8 Buckingham Avenue",
    "address2": "",
    "city": "Slough",
    "country": "GB",
    "postcode": "SL1 4AX",
    "latitude": 51.522463,
    "longitude": -0.62905
  },
  "835": {
    "org_id": 7,
    "name": "Telehouse - London (Docklands West)",
    "address1": "14 Coriander Avenue",
    "address2": "",
    "city": "London",
    "country": "GB",
    "postcode": "E14 2AA",
    "latitude": 51.5117576,
    "longitude": -0.0017405
  },
  "840": {
    "org_id": 8256,
    "name": "Reading Data",
    "address1": "58 Portman Road",
    "address2": "",
    "city": "Reading",
    "country": "GB",
    "postcode": "RG30 1EA",
    "latitude": 51.4612241,
    "longitude": -1.0029673
  },
  "896": {
    "org_id": 1813,
    "name": "aql Salem Church",
    "address1": "11-15 Hunslet Road",
    "address2": "",
    "city": "Leeds",
    "country": "GB",
    "postcode": "LS10 1JQ",
    "latitude": 53.793329,
    "longitude": -1.54109
  },
  "990": {
    "org_id": 3576,
    "name": "4D Surrey",
    "address1": "122 Oyster Lane",
    "address2": "",
    "city": "Byfleet",
    "country": "GB",
    "postcode": "KT14 7JU",
    "latitude": 51.347292,
    "longitude": -0.480173
  },
  "1009": {
    "org_id": 11051,
    "name": "Reliance Skewjack",
    "address1": "B3315, St Levant",
    "address2": "",
    "city": "Penzance",
    "country": "GB",
    "postcode": "TR 19 6NB",
    "latitude": null,
    "longitude": null
  },
  "1027": {
    "org_id": 3844,
    "name": "VIRTUS LONDON1 (Enfield)",
    "address1": "Unit 3, Trade City, Crown Road",
    "address2": "Enfield",
    "city": "London",
    "country": "GB",
    "postcode": "EN1 1TX",
    "latitude": null,
    "longitude": null
  },
  "1054": {
    "org_id": 6238,
    "name": "M247 Ball Green",
    "address1": "1-3 Ball Green",
    "address2": "Cobra Court",
    "city": "Manchester",
    "country": "GB",
    "postcode": "M32 0QT",
    "latitude": 53.461177,
    "longitude": -2.326691
  },
  "1074": {
    "org_id": 4418,
    "name": "Options West London Data Centre",
    "address1": "3 Waxlow Road",
    "address2": "Park Royal",
    "city": "London",
    "country": "GB",
    "postcode": "NW10 7NU",
    "latitude": 51.534768,
    "longitude": -0.26086
  },
  "1108": {
    "org_id": 4849,
    "name": "Leeds DC1",
    "address1": "North Street",
    "address2": "",
    "city": "Leeds",
    "country": "GB",
    "postcode": "LS7 2AA",
    "latitude": 53.8072976,
    "longitude": -1.5349186
  },
  "1139": {
    "org_id": 2465,
    "name": "Host-it Northampton (NNDC-2)",
    "address1": "Northampton Science Park",
    "address2": "Kings Park Road",
    "city": "Northampton",
    "country": "GB",
    "postcode": "NN3 6LG",
    "latitude": 52.276864,
    "longitude": -0.877933
  },
  "1140": {
    "org_id": 2465,
    "name": "Host-it Bletchley (MKDC-1)",
    "address1": "1 Brick Cl",
    "address2": "",
    "city": "Milton Keynes",
    "country": "GB",
    "postcode": " MK11 3JB",
    "latitude": 52.0420902,
    "longitude": -0.8198528
  },
  "1206": {
    "org_id": 11042,
    "name": "AIMES/Arrow DC2 Kilby House",
    "address1": "Kilby House",
    "address2": "Liverpool Innovation Park",
    "city": "Liverpool",
    "country": "GB",
    "postcode": "L7 9NJ",
    "latitude": 53.408775,
    "longitude": -2.933413
  },
  "1207": {
    "org_id": 1606,
    "name": "Bournemouth Data Centre",
    "address1": "County Gates House",
    "address2": "300 Poole Road",
    "city": "Bournemouth",
    "country": "GB",
    "postcode": "BH12 1AZ",
    "latitude": 50.724058,
    "longitude": -1.906308
  },
  "1242": {
    "org_id": 73,
    "name": "Interxion London (Woking 2)",
    "address1": "Unit 21, Goldsworth Park Trading Est.",
    "address2": "Kestrel Way",
    "city": "Woking",
    "country": "GB",
    "postcode": "GU21 3BA",
    "latitude": 51.32452,
    "longitude": -0.584986
  },
  "1243": {
    "org_id": 2767,
    "name": "iomart DC6 Turing House",
    "address1": "Turing House",
    "address2": "Archway",
    "city": "Manchester",
    "country": "GB",
    "postcode": "M15 5RL",
    "latitude": 53.464408,
    "longitude": -2.246272
  },
  "1263": {
    "org_id": 1215,
    "name": "LDeX1",
    "address1": "Units 8 - 10, The Oxgate Business Centre",
    "address2": "Oxgate Lane",
    "city": "London",
    "country": "GB",
    "postcode": "NW2 7JA",
    "latitude": 51.567301,
    "longitude": -0.231872
  },
  "1264": {
    "org_id": 2767,
    "name": "iomart DC7 The Server Hotel Reynolds",
    "address1": "Reynolds House",
    "address2": "Archway",
    "city": "Manchester",
    "country": "GB",
    "postcode": "M15 5RL",
    "latitude": 53.464423,
    "longitude": -2.246751
  },
  "1265": {
    "org_id": 2767,
    "name": "Greenheys",
    "address1": "Greenheys",
    "address2": "Pencroft Way",
    "city": "Manchester",
    "country": "GB",
    "postcode": "M15 6JJ",
    "latitude": 53.461255,
    "longitude": -2.24141
  },
  "1267": {
    "org_id": 6564,
    "name": "QiComm Tutis Point",
    "address1": "5 Greenwich View Place",
    "address2": "",
    "city": "London",
    "country": "GB",
    "postcode": "E14 9NN",
    "latitude": 51.494644,
    "longitude": -0.018318
  },
  "1300": {
    "org_id": 24568,
    "name": "ANS - MAN4",
    "address1": "2 Adbaston Road",
    "address2": "Cobra Court",
    "city": "Manchester",
    "country": "GB",
    "postcode": "M32 0TP",
    "latitude": 53.460851,
    "longitude": -2.326922
  },
  "1311": {
    "org_id": 4921,
    "name": "Six Degrees Studley South",
    "address1": "Birmingham Road",
    "address2": "",
    "city": "Studley",
    "country": "GB",
    "postcode": "B80 7BG",
    "latitude": 52.2776467,
    "longitude": -1.8952168
  },
  "1312": {
    "org_id": 4921,
    "name": "Six Degrees Studley North",
    "address1": "Birmingham Road",
    "address2": "",
    "city": "Studley",
    "country": "GB",
    "postcode": "B80 7BG",
    "latitude": 52.2776467,
    "longitude": -1.8952168
  },
  "1331": {
    "org_id": 5905,
    "name": "ServerChoice  SC-2",
    "address1": "BioPark, Broadwater Road,",
    "address2": "",
    "city": "Welwyn Garden City",
    "country": "GB",
    "postcode": "AL7 3AX ",
    "latitude": 51.797555,
    "longitude": -0.203813
  },
  "1372": {
    "org_id": 7271,
    "name": "Neos Networks Hampshire",
    "address1": "18 Brunel Way",
    "address2": "Fareham",
    "city": "Hampshire",
    "country": "GB",
    "postcode": "PO15 5TX",
    "latitude": 50.86838,
    "longitude": -1.248006
  },
  "1388": {
    "org_id": 57,
    "name": "Rackspace London Slough (LON3)",
    "address1": "115 Buckingham Avenue",
    "address2": "Slough Trading Estate",
    "city": "Slough",
    "country": "GB",
    "postcode": "SL1 4PF",
    "latitude": 51.520432,
    "longitude": -0.618277
  },
  "1403": {
    "org_id": 2,
    "name": "Equinix MA3 - Manchester, Joule House",
    "address1": "76 Trafford Park Road",
    "address2": "Trafford Park",
    "city": "Manchester",
    "country": "GB",
    "postcode": "M17 1HE",
    "latitude": 53.468674,
    "longitude": -2.310421
  },
  "1409": {
    "org_id": 7444,
    "name": "Aspen House Fleet",
    "address1": "Aspen House, Barley Way, Ancells Business Park",
    "address2": "",
    "city": "Fleet",
    "country": "GB",
    "postcode": "GU51 2UT",
    "latitude": 51.298837,
    "longitude": -0.830296
  },
  "1547": {
    "org_id": 8069,
    "name": "Volta",
    "address1": "36-43 Great Sutton Street",
    "address2": "",
    "city": "London",
    "country": "GB",
    "postcode": "EC1V0AB",
    "latitude": 51.523353,
    "longitude": -0.101245
  },
  "1548": {
    "org_id": 8100,
    "name": "NGD Newport",
    "address1": "Celtic Way",
    "address2": "Duffryn",
    "city": "Newport",
    "country": "GB",
    "postcode": "NP10 8UW",
    "latitude": null,
    "longitude": null
  },
  "1621": {
    "org_id": 8256,
    "name": "Amatis Newbury",
    "address1": "Castle Industrial Park",
    "address2": "",
    "city": "Newbury",
    "country": "GB",
    "postcode": "RG14 2EZ",
    "latitude": 51.410224,
    "longitude": -1.304674
  },
  "1680": {
    "org_id": 8539,
    "name": "brightsolid Dundee Data Centre",
    "address1": "Gateway House",
    "address2": "Luna Place",
    "city": "Dundee",
    "country": "GB",
    "postcode": "DD2 1TP",
    "latitude": 56.463688,
    "longitude": -3.0551
  },
  "1683": {
    "org_id": 24568,
    "name": "ANS - MAN5",
    "address1": "Unit 19 Blackmore Road",
    "address2": "Cobra Court",
    "city": "Manchester",
    "country": "GB",
    "postcode": "M32 0QY",
    "latitude": null,
    "longitude": null
  },
  "1684": {
    "org_id": 24568,
    "name": "ANS - MAN6",
    "address1": "Unit 20a & 20b Blackmore Road",
    "address2": "Cobra Court",
    "city": "Manchester",
    "country": "GB",
    "postcode": "M32 0QY",
    "latitude": null,
    "longitude": null
  },
  "1699": {
    "org_id": 5905,
    "name": "ServerChoice SC-1",
    "address1": "Unit HJK, Gateway 1000,",
    "address2": "Whittle Way,",
    "city": "Stevenage",
    "country": "GB",
    "postcode": "12FP",
    "latitude": 51.888344,
    "longitude": -0.204682
  },
  "1702": {
    "org_id": 2853,
    "name": "Reliance House",
    "address1": "Reliance House",
    "address2": "Skinnerburn Road",
    "city": "Newcastle upon Tyne",
    "country": "GB",
    "postcode": "NE4 7AN",
    "latitude": 54.960971,
    "longitude": -1.632163
  },
  "1728": {
    "org_id": 18543,
    "name": "Safehosts Cheltenham",
    "address1": "Saxon House",
    "address2": "Saxon Way",
    "city": "Cheltenham",
    "country": "GB",
    "postcode": "GL52 6QX",
    "latitude": 51.89431,
    "longitude": -2.059132
  },
  "1740": {
    "org_id": 1215,
    "name": "iomart DC9 Gosport",
    "address1": "2 Frater Gate Business Park",
    "address2": "Aerodrome Road",
    "city": "Gosport",
    "country": "GB",
    "postcode": "PO130GW",
    "latitude": 50.825506,
    "longitude": -1.163042
  },
  "1753": {
    "org_id": 3079,
    "name": "Daisy Reading",
    "address1": "1 Transcentral Bennet Road",
    "address2": "",
    "city": "Reading",
    "country": "GB",
    "postcode": "RG2 0QX",
    "latitude": 51.425844,
    "longitude": -0.97543
  },
  "1792": {
    "org_id": 73,
    "name": "Interxion London (Chessington)",
    "address1": "Fountain Court",
    "address2": "Cox Lane",
    "city": "Chessington",
    "country": "GB",
    "postcode": "KT9 1SJ",
    "latitude": 51.512487,
    "longitude": -0.112216
  },
  "1793": {
    "org_id": 73,
    "name": "Interxion London (Redhill)",
    "address1": "3 Foxboro Business Park",
    "address2": "St. Anne\u2019s Boulevard",
    "city": "Redhill",
    "country": "GB",
    "postcode": "RH1 1AX",
    "latitude": null,
    "longitude": null
  },
  "1802": {
    "org_id": 7980,
    "name": "Pulsant Edinburgh Newbridge",
    "address1": "7 Claylands Road",
    "address2": "Newbridge",
    "city": "Edinburgh",
    "country": "GB",
    "postcode": "EH28 8LF",
    "latitude": 55.929394,
    "longitude": -3.41002
  },
  "1815": {
    "org_id": 10651,
    "name": "Datacentred Manchester SAL01",
    "address1": "Michigan Avenue",
    "address2": "",
    "city": "Salford",
    "country": "GB",
    "postcode": "M50 2GY",
    "latitude": 53.4754287,
    "longitude": -2.2934505
  },
  "1817": {
    "org_id": 9254,
    "name": "BT Empire Exchange / Stadium House ",
    "address1": "5  Park Street",
    "address2": "",
    "city": "Cardiff",
    "country": "GB",
    "postcode": "CF10 1NT",
    "latitude": 51.478187,
    "longitude": -3.180582
  },
  "1827": {
    "org_id": 9283,
    "name": "Legend Bradford",
    "address1": "167-169 Sunbridge Road",
    "address2": "",
    "city": "Bradford",
    "country": "GB",
    "postcode": "BD1 2HB",
    "latitude": 53.79512,
    "longitude": -1.762407
  },
  "1843": {
    "org_id": 2465,
    "name": "Host-it Milton Keynes (MKDC-0)",
    "address1": "1 Brick Close",
    "address2": "Kiln Farm",
    "city": "Milton Keynes",
    "country": "GB",
    "postcode": "MK11 3JB",
    "latitude": 52.041813,
    "longitude": -0.821027
  },
  "1848": {
    "org_id": 1741,
    "name": "Ask 4 DC1 - Sheffield",
    "address1": "9 Brompton Road",
    "address2": "",
    "city": "Sheffield",
    "country": "GB",
    "postcode": "S9 2PA",
    "latitude": 53.3982073,
    "longitude": -1.4293808
  },
  "1872": {
    "org_id": 9566,
    "name": "Colocker",
    "address1": "Interchange Park",
    "address2": "",
    "city": "Milton Keynes",
    "country": "GB",
    "postcode": "MK16 9PY",
    "latitude": null,
    "longitude": null
  },
  "1934": {
    "org_id": 28858,
    "name": "Arelion London HEX",
    "address1": "1 Harbour Exchange Square",
    "address2": "",
    "city": "London",
    "country": "GB",
    "postcode": "E14 9GE",
    "latitude": 51.499234,
    "longitude": -0.014255
  },
  "1959": {
    "org_id": 1435,
    "name": "Bytemark YO26 DC1",
    "address1": "2 Opus Avenue",
    "address2": "",
    "city": "York",
    "country": "GB",
    "postcode": "YO26 6BL",
    "latitude": 53.979611,
    "longitude": -1.130668
  },
  "1963": {
    "org_id": 73,
    "name": "Interxion London (Woking)",
    "address1": "Unit 21, Goldsworth Park Trading Estate",
    "address2": "Kestrel Way",
    "city": "Woking",
    "country": "GB",
    "postcode": "GU21 3BA",
    "latitude": 51.323497,
    "longitude": -0.587003
  },
  "2009": {
    "org_id": 10417,
    "name": "Brighton Digital Exchange BTN1",
    "address1": "New England House",
    "address2": "",
    "city": "Brighton",
    "country": "GB",
    "postcode": "BN1 4GH",
    "latitude": 50.832243,
    "longitude": -0.138645
  },
  "2028": {
    "org_id": 10513,
    "name": "FLAG London",
    "address1": "",
    "address2": "",
    "city": "London",
    "country": "GB",
    "postcode": "",
    "latitude": 51.5073359,
    "longitude": -0.12765
  },
  "2090": {
    "org_id": 791,
    "name": "LINX Wales - BT Stadium House",
    "address1": "Stadium House",
    "address2": "5 Park Street",
    "city": "Cardiff",
    "country": "GB",
    "postcode": "CF10 1XR",
    "latitude": 51.478416,
    "longitude": -3.180046
  },
  "2116": {
    "org_id": 4921,
    "name": "Six Degrees London 1",
    "address1": "Anchor and Hope Lane",
    "address2": "",
    "city": "London",
    "country": "GB",
    "postcode": "SE7 7SQ",
    "latitude": 51.4897511,
    "longitude": 0.0300785
  },
  "2117": {
    "org_id": 10787,
    "name": "ServerHouse P1",
    "address1": "Delme Place",
    "address2": "Cams Estate",
    "city": "Fareham",
    "country": "GB",
    "postcode": "PO16 8UX",
    "latitude": 50.848112,
    "longitude": -1.166397
  },
  "2168": {
    "org_id": 10922,
    "name": "Midlands Technology Centre",
    "address1": "Midlands Technology Centre",
    "address2": "Broadlands",
    "city": "Wolverhampton",
    "country": "GB",
    "postcode": "WV10 6TA",
    "latitude": 52.637244,
    "longitude": -2.120423
  },
  "2192": {
    "org_id": 11323,
    "name": "Amito Reading Link33",
    "address1": "Unit 2, Smallmead Road",
    "address2": "",
    "city": "Reading",
    "country": "GB",
    "postcode": "RG2 0QS",
    "latitude": 51.427755,
    "longitude": -0.97925
  },
  "2229": {
    "org_id": 7256,
    "name": "Nasstar GBTEL01 Datapoint House",
    "address1": "Datapoint House",
    "address2": "400 Queensway Business Park",
    "city": "Telford",
    "country": "GB",
    "postcode": "TF1 7UL",
    "latitude": 52.718606,
    "longitude": -2.482159
  },
  "2230": {
    "org_id": 219,
    "name": "Entanet Telford DC3",
    "address1": "Stafford Park 6",
    "address2": "",
    "city": "Telford, Shropshire",
    "country": "GB",
    "postcode": "TF3 3AT",
    "latitude": 52.679153,
    "longitude": -2.415104
  },
  "2244": {
    "org_id": 11866,
    "name": "Stream Networks - Newbury",
    "address1": "2, Riverside House",
    "address2": "Mill Lane",
    "city": "Newbury",
    "country": "GB",
    "postcode": "RG14 5QS",
    "latitude": 51.401257,
    "longitude": -1.314798
  },
  "2262": {
    "org_id": 2,
    "name": "Equinix LD6 - London, Slough",
    "address1": "352 Buckingham Avenue",
    "address2": "",
    "city": "Slough",
    "country": "GB",
    "postcode": "SL1 4PF",
    "latitude": 51.524335,
    "longitude": -0.63804
  },
  "2277": {
    "org_id": 12038,
    "name": "Datum",
    "address1": "Cody Technology Park",
    "address2": "",
    "city": "Farnborough",
    "country": "GB",
    "postcode": "GU14 0LX",
    "latitude": 51.279501,
    "longitude": -0.792355
  },
  "2345": {
    "org_id": 10922,
    "name": "Chubb Buildings",
    "address1": "Chubb Buildings",
    "address2": "Fryer Street",
    "city": "Wolverhampton",
    "country": "GB",
    "postcode": "WV1 1HT",
    "latitude": 52.587498,
    "longitude": -2.123162
  },
  "2360": {
    "org_id": 1215,
    "name": "LDeX2",
    "address1": "Unit 6, Waterside",
    "address2": "Trafford Wharf Road",
    "city": "Manchester",
    "country": "GB",
    "postcode": "M17 1WD",
    "latitude": 53.466919,
    "longitude": -2.294242
  },
  "2384": {
    "org_id": 1813,
    "name": "aql DC5",
    "address1": "Canon House, Apex Way",
    "address2": "",
    "city": "Leeds",
    "country": "GB",
    "postcode": "",
    "latitude": null,
    "longitude": null
  },
  "2417": {
    "org_id": 8539,
    "name": "brightsolid Aberdeen Data Centre",
    "address1": "Lang Stracht",
    "address2": "",
    "city": "Aberdeen",
    "country": "GB",
    "postcode": "AB15 6DF",
    "latitude": 57.1514487,
    "longitude": -2.1585692
  },
  "2429": {
    "org_id": 12974,
    "name": "Ark Data Centres - Spring Park - SQ17, P1, P2, P3, P4, P5",
    "address1": "Westwells Road",
    "address2": "Spring Park, Hawthorn",
    "city": "Corsham",
    "country": "GB",
    "postcode": "SN13 9GB",
    "latitude": 51.419688,
    "longitude": -2.215918
  },
  "2627": {
    "org_id": 16992,
    "name": "Cyxtera London (LHR1)",
    "address1": "630 Ajax Ave.",
    "address2": "",
    "city": "Slough",
    "country": "GB",
    "postcode": "SL1 4DG",
    "latitude": 51.516487,
    "longitude": -0.617882
  },
  "2628": {
    "org_id": 16992,
    "name": "Cyxtera London (LHR2)",
    "address1": "7 Greenwich View Pl",
    "address2": "",
    "city": "London",
    "country": "GB",
    "postcode": "E14",
    "latitude": 51.494704,
    "longitude": -0.018699
  },
  "2631": {
    "org_id": 16992,
    "name": "Cyxtera London (LHR3)",
    "address1": "Eskdale Road",
    "address2": "Winnersh Triangle",
    "city": "Wokingham",
    "country": "GB",
    "postcode": "RG41 5TS",
    "latitude": 51.439042,
    "longitude": -0.881352
  },
  "2682": {
    "org_id": 5783,
    "name": "Custodian CDC Maidstone 1",
    "address1": "Custodian DataCentres",
    "address2": "Vinters Park",
    "city": "Maidstone",
    "country": "GB",
    "postcode": "ME14 5NZ",
    "latitude": 51.279882,
    "longitude": 0.549373
  },
  "2683": {
    "org_id": 13829,
    "name": "CSD Network Services Ltd",
    "address1": "10 New Road",
    "address2": "Rayne",
    "city": "Braintree",
    "country": "GB",
    "postcode": "CM77 6TG",
    "latitude": 51.873218,
    "longitude": 0.509738
  },
  "2807": {
    "org_id": 14113,
    "name": "DC01 -Baltic Creative",
    "address1": "49 Jamaica St",
    "address2": "",
    "city": "Liverpool",
    "country": "GB",
    "postcode": "L1 0AH",
    "latitude": 53.395362,
    "longitude": -2.980006
  },
  "2894": {
    "org_id": 1215,
    "name": "iomart DC5 Maidenhead",
    "address1": "Spectrum House, Clivemont Road",
    "address2": "",
    "city": "Maidenhead",
    "country": "GB",
    "postcode": "SL6 7FW",
    "latitude": 51.528789,
    "longitude": -0.725424
  },
  "2907": {
    "org_id": 2,
    "name": "Equinix MA4 - Manchester, Synergy House",
    "address1": "Synergy House",
    "address2": "Manchester Science Park",
    "city": "Manchester",
    "country": "GB",
    "postcode": "M15 6SY",
    "latitude": 53.461506,
    "longitude": -2.238131
  },
  "2992": {
    "org_id": 14436,
    "name": "DataVita Glasgow (DC1/DC2)",
    "address1": "Unit 1 York Road",
    "address2": "Chapelhall",
    "city": "Glasgow",
    "country": "GB",
    "postcode": "ML6 8HW",
    "latitude": 55.834442,
    "longitude": -3.95252
  },
  "3144": {
    "org_id": 7429,
    "name": "Fastnet Brighton Datacentre",
    "address1": "Ditchling Road",
    "address2": "",
    "city": "Brighton",
    "country": "GB",
    "postcode": "BN1 4ST",
    "latitude": 50.8324025,
    "longitude": -0.1341998
  },
  "3150": {
    "org_id": 14799,
    "name": "VeloxServ DC1 - Wolverhampton",
    "address1": "Merryhills Enterprise Park",
    "address2": "Park Lane",
    "city": "Wolverhampton",
    "country": "GB",
    "postcode": "WV10 9TJ",
    "latitude": 52.601611,
    "longitude": -2.110311
  },
  "3152": {
    "org_id": 2,
    "name": "Equinix LD10 - London, Slough",
    "address1": "13 Liverpool Road",
    "address2": "",
    "city": "Slough",
    "country": "GB",
    "postcode": "SL1 4PF",
    "latitude": 51.522042,
    "longitude": -0.623736
  },
  "3213": {
    "org_id": 4921,
    "name": "Six Degrees Birmingham Central",
    "address1": "Garrison Technology Park",
    "address2": "Westley Street",
    "city": "Birmingham",
    "country": "GB",
    "postcode": "B9 4ER",
    "latitude": null,
    "longitude": null
  },
  "3226": {
    "org_id": 14237,
    "name": "HA Hosting DC1",
    "address1": "Unit 9",
    "address2": "Holbrook Commerce Park",
    "city": "Sheffield",
    "country": "GB",
    "postcode": "S20 3FJ",
    "latitude": 53.333519,
    "longitude": -1.33988
  },
  "3399": {
    "org_id": 73,
    "name": "Interxion London (Oliver\u2019s Yard)",
    "address1": "55-71 CITY RD",
    "address2": "",
    "city": "London",
    "country": "GB",
    "postcode": "EC1Y 1HQ",
    "latitude": 51.524422,
    "longitude": -0.086892
  },
  "3631": {
    "org_id": 3844,
    "name": "VIRTUS LONDON4 (Slough)",
    "address1": "14 Liverpool Rd",
    "address2": "",
    "city": "Slough",
    "country": "GB",
    "postcode": "SL1",
    "latitude": 51.523143,
    "longitude": -0.622406
  },
  "3884": {
    "org_id": 14135,
    "name": "CWCS DCN1",
    "address1": "Portland Street",
    "address2": "Beeston",
    "city": "Nottingham",
    "country": "GB",
    "postcode": "NG9 2LP",
    "latitude": 52.9974642,
    "longitude": -1.1351854
  },
  "4027": {
    "org_id": 16367,
    "name": "Nigsun Data Centre NCS1",
    "address1": "4 Modular Business Park  Norton Road",
    "address2": "",
    "city": "Stevenage",
    "country": "GB",
    "postcode": "SG1 2BB",
    "latitude": 51.896858,
    "longitude": -0.205451
  },
  "4060": {
    "org_id": 17099,
    "name": "Itility BVDC",
    "address1": "Hyde Road",
    "address2": "",
    "city": "Manchester",
    "country": "GB",
    "postcode": "M12 5NQ",
    "latitude": 53.464624,
    "longitude": -2.1923416
  },
  "4088": {
    "org_id": 30458,
    "name": "AtlasEdge DC London I",
    "address1": "Princes Court Wapping Lane",
    "address2": "",
    "city": "London",
    "country": "GB",
    "postcode": "E1W 2DA",
    "latitude": 51.508518,
    "longitude": -0.057772
  },
  "4089": {
    "org_id": 118,
    "name": "COLT DC London II",
    "address1": "Powergate, Volt Avenue",
    "address2": "",
    "city": "London",
    "country": "GB",
    "postcode": "NW10 6PN",
    "latitude": 51.530547,
    "longitude": -0.257425
  },
  "4149": {
    "org_id": 7625,
    "name": "CyrusOne London 1",
    "address1": "12 Liverpool Road",
    "address2": "",
    "city": "Slough",
    "country": "GB",
    "postcode": "SL1 4QZ",
    "latitude": 51.523367,
    "longitude": -0.621986
  },
  "4150": {
    "org_id": 7625,
    "name": "CyrusOne London 2",
    "address1": "DC2 Prologis Park Heathrow",
    "address2": "Stockley Road",
    "city": "West Drayton",
    "country": "GB",
    "postcode": "UB7 9FN",
    "latitude": 51.503731,
    "longitude": -0.44782
  },
  "4231": {
    "org_id": 17528,
    "name": "Netwise London Central (NLC)",
    "address1": "Netwise House",
    "address2": "24 Old Jamaica Road",
    "city": "Bermondsey",
    "country": "GB",
    "postcode": "SE16 4AW",
    "latitude": 51.49748,
    "longitude": -0.07058
  },
  "4343": {
    "org_id": 3576,
    "name": "4D Gatwick (Crawley)",
    "address1": "17-19 Kelvin Lane",
    "address2": "",
    "city": "Crawley",
    "country": "GB",
    "postcode": "RH10 9EY",
    "latitude": 51.132895,
    "longitude": -0.17656
  },
  "4351": {
    "org_id": 17876,
    "name": "South West Communications Exeter",
    "address1": "Moor Lane",
    "address2": "Sowton",
    "city": "Exeter",
    "country": "GB",
    "postcode": "EX27JF",
    "latitude": 50.7244837,
    "longitude": -3.4678119
  },
  "4360": {
    "org_id": 7,
    "name": "Telehouse - London (Docklands North Two)",
    "address1": "14 Coriander Avenue",
    "address2": "",
    "city": "London",
    "country": "GB",
    "postcode": "E14 2AA",
    "latitude": 51.5117576,
    "longitude": -0.0017405
  },
  "4404": {
    "org_id": 3844,
    "name": "VIRTUS LONDON2 (Hayes)",
    "address1": "VIRTUS Data Centre",
    "address2": "Western International Park, Hayes Road",
    "city": "Hayes",
    "country": "GB",
    "postcode": "UB2 5XX",
    "latitude": 51.515786,
    "longitude": -0.140295
  },
  "4405": {
    "org_id": 3844,
    "name": "VIRTUS LONDON3 (Slough)",
    "address1": "14 Liverpool Road",
    "address2": "Slough Trading Estate",
    "city": "Slough",
    "country": "GB",
    "postcode": "SL1 4QZ",
    "latitude": 51.523143,
    "longitude": -0.622406
  },
  "4462": {
    "org_id": 18063,
    "name": "Elstree Customer Hosting Centre",
    "address1": "Regent House",
    "address2": "Theobald Street",
    "city": "Borehamwood",
    "country": "GB",
    "postcode": "WD6 4RS",
    "latitude": 51.653994,
    "longitude": -0.280006
  },
  "4463": {
    "org_id": 18063,
    "name": "Bolton Customer Hosting Centre",
    "address1": "Hallmark House, Paragon Business Park",
    "address2": "Chorley New Road",
    "city": "Bolton",
    "country": "GB",
    "postcode": "BL6 6HG",
    "latitude": 53.585077,
    "longitude": -2.526218
  },
  "4487": {
    "org_id": 17639,
    "name": "Keppel Data Centres | GV7 Data Centre",
    "address1": "7 Greenwich View Place",
    "address2": "Millharbour Road",
    "city": "London",
    "country": "GB",
    "postcode": "E14 9NN",
    "latitude": 51.494644,
    "longitude": -0.018318
  },
  "4545": {
    "org_id": 10787,
    "name": "ServerHouse F2",
    "address1": "14 Brunel Way",
    "address2": "Fareham",
    "city": "Fareham",
    "country": "GB",
    "postcode": "PO15 5TX",
    "latitude": 50.867745,
    "longitude": -1.24561
  },
  "4762": {
    "org_id": 14113,
    "name": "DC02 - The Tapestry",
    "address1": "68-76 Kempston St",
    "address2": "",
    "city": "Liverpool",
    "country": "GB",
    "postcode": "L3 8ET",
    "latitude": 53.410527,
    "longitude": -2.971513
  },
  "4797": {
    "org_id": 73,
    "name": "Interxion London (Croydon)",
    "address1": "Unit B Prologis Park",
    "address2": "Greenland Way",
    "city": "Croydon",
    "country": "GB",
    "postcode": "CR0 4TD",
    "latitude": 51.384635,
    "longitude": -0.136767
  },
  "4798": {
    "org_id": 73,
    "name": "Interxion London (Crawley)",
    "address1": "North Building, Power Avenue",
    "address2": "Manor Royal, Principal Park Campus",
    "city": "Crawley",
    "country": "GB",
    "postcode": "RH10 9BE",
    "latitude": null,
    "longitude": null
  },
  "4799": {
    "org_id": 73,
    "name": "Interxion London (Cressex)",
    "address1": "Phoenix House, 10 Coronation Road",
    "address2": "Cressex Business Park",
    "city": "Buckinghamshire",
    "country": "GB",
    "postcode": "HP12 3TA",
    "latitude": 51.619864,
    "longitude": -0.779207
  },
  "4800": {
    "org_id": 73,
    "name": "Interxion London (Watford)",
    "address1": "The Chess Building",
    "address2": "Caxton Way",
    "city": "Watford",
    "country": "GB",
    "postcode": "WD18 8UA",
    "latitude": 51.64277765,
    "longitude": -0.4279001960383515
  },
  "4885": {
    "org_id": 11519,
    "name": "VIRTUS LONDON5 (Stockley Park)",
    "address1": "Prologis Park West London",
    "address2": "Horton Road",
    "city": "Stockley Park",
    "country": "GB",
    "postcode": "UB11 1HB",
    "latitude": 51.503731,
    "longitude": -0.44782
  },
  "4974": {
    "org_id": 9411,
    "name": "Epsilon Global Hubs London",
    "address1": "Telephone House",
    "address2": "69-77 Paul Street",
    "city": "London",
    "country": "GB",
    "postcode": "EC2A 4NW",
    "latitude": 51.525318,
    "longitude": -0.08416
  },
  "5149": {
    "org_id": 6308,
    "name": "Vision247 - Chiswick Datacenter",
    "address1": "566, Chiswick High Road",
    "address2": "Building 10 - Floor 2",
    "city": "London",
    "country": "GB",
    "postcode": "w4 5xs",
    "latitude": 51.494725,
    "longitude": -0.274793
  },
  "5238": {
    "org_id": 10919,
    "name": "CentriLogic Arlington (ARL)",
    "address1": "No. 5 Arlington Square",
    "address2": "Downshire Way",
    "city": "Bracknell",
    "country": "GB",
    "postcode": "RG12 1WA",
    "latitude": 51.416021,
    "longitude": -0.758164
  },
  "5279": {
    "org_id": 2109,
    "name": "Internet For Business Limited",
    "address1": "54 Hareness Road",
    "address2": "Altens Industrial Estate",
    "city": "Aberdeen",
    "country": "GB",
    "postcode": "AB12 3LE",
    "latitude": 57.115441,
    "longitude": -2.078678
  },
  "5441": {
    "org_id": 16352,
    "name": "Serverfarm LON1 London",
    "address1": "Unit 4, Westgate Industrial Estate",
    "address2": "",
    "city": "Feltham",
    "country": "GB",
    "postcode": "TW14 8RS",
    "latitude": null,
    "longitude": null
  },
  "5993": {
    "org_id": 21404,
    "name": "Indectron GCR1 - Gloucester, Shield House",
    "address1": "Shield House, 2 Crest Way",
    "address2": "Barnwood",
    "city": "Gloucester",
    "country": "GB",
    "postcode": "GL4 3DH",
    "latitude": 51.863706,
    "longitude": -2.197019
  },
  "6347": {
    "org_id": 8959,
    "name": "Iron Mountain Data Center - London (LON-1)",
    "address1": "724-729 Dundee Road",
    "address2": "",
    "city": "Slough",
    "country": "GB",
    "postcode": "SL1 4JU",
    "latitude": 51.527327,
    "longitude": -0.631104
  },
  "6433": {
    "org_id": 21342,
    "name": "Satellite Mediaport",
    "address1": "Lawford Heath Ln",
    "address2": "Long Lawford",
    "city": "Rugby",
    "country": "GB",
    "postcode": "CV23 9EU",
    "latitude": 52.360307,
    "longitude": -1.3280795
  },
  "6462": {
    "org_id": 14799,
    "name": "VeloxServ DC2 - Wolverhampton",
    "address1": "Merryhills Enterprise Park",
    "address2": "",
    "city": "Wolverhampton",
    "country": "GB",
    "postcode": "WV10 9TJ",
    "latitude": 52.601611,
    "longitude": -2.110311
  },
  "6482": {
    "org_id": 22401,
    "name": "SCC Fareham",
    "address1": "18 Brunel Way",
    "address2": "",
    "city": "Fareham",
    "country": "GB",
    "postcode": "PO15 5TX",
    "latitude": 50.86838,
    "longitude": -1.248006
  },
  "6483": {
    "org_id": 7980,
    "name": "Pulsant South London",
    "address1": "Unit 1, 35 Imperial Way",
    "address2": "",
    "city": "Croydon",
    "country": "GB",
    "postcode": "CR0 4RR",
    "latitude": 51.35347,
    "longitude": -0.11879
  },
  "6535": {
    "org_id": 2,
    "name": "Equinix LD7 -  London, Slough",
    "address1": "6 Banbury Ave",
    "address2": "",
    "city": "Slough",
    "country": "GB",
    "postcode": "SL1 4LH",
    "latitude": 51.525866,
    "longitude": -0.634279
  },
  "6686": {
    "org_id": 22690,
    "name": "Evoque_Birmingham-BHX1",
    "address1": "Ravensbank Dr.",
    "address2": "N. Moons Moat Redditch",
    "city": "Worcestershire",
    "country": "GB",
    "postcode": "B98 9AY",
    "latitude": 52.316491,
    "longitude": -1.888495
  },
  "6687": {
    "org_id": 22690,
    "name": "Evoque_London - LHR1",
    "address1": "Sovereign House",
    "address2": "227 Marsh Wall",
    "city": "London",
    "country": "GB",
    "postcode": "E14 9SD",
    "latitude": 51.499835,
    "longitude": -0.011088
  },
  "6688": {
    "org_id": 22690,
    "name": "Evoque_London - LHR2",
    "address1": "Goldsworth Park Trading Estate",
    "address2": "Unit 21, Kestrel Way",
    "city": "Woking",
    "country": "GB",
    "postcode": "GU21 3BA",
    "latitude": 51.324263,
    "longitude": -0.584971
  },
  "6750": {
    "org_id": 22800,
    "name": "Docklands Data Centre",
    "address1": "5 Greenwich View Place",
    "address2": "",
    "city": "London",
    "country": "GB",
    "postcode": "E14 9NN",
    "latitude": 51.4946,
    "longitude": -0.018273
  },
  "6767": {
    "org_id": 12680,
    "name": "Exascale Telford 1 (West)",
    "address1": "Unit 26",
    "address2": "Trench Lock 3",
    "city": "Telford",
    "country": "GB",
    "postcode": "TF1 5ST",
    "latitude": 52.707425,
    "longitude": -2.46746
  },
  "6893": {
    "org_id": 10787,
    "name": "ServerHouse F1",
    "address1": "Walled Garden, Cams Estate",
    "address2": "Fareham",
    "city": "Hampshire",
    "country": "GB",
    "postcode": "PO16 8AA",
    "latitude": 50.846154,
    "longitude": -1.168462
  },
  "6894": {
    "org_id": 10787,
    "name": "ServerHouse P2",
    "address1": "West Barn",
    "address2": "Fareham",
    "city": "Hampshire",
    "country": "GB",
    "postcode": "PO16 8UT",
    "latitude": 50.848702,
    "longitude": -1.165861
  },
  "6923": {
    "org_id": 23059,
    "name": "Talia London",
    "address1": "9A Margaret Street",
    "address2": "",
    "city": "London",
    "country": "GB",
    "postcode": "W1W 8RJ",
    "latitude": 51.517122,
    "longitude": -0.139392
  },
  "7042": {
    "org_id": 23278,
    "name": "Kao Data Campus",
    "address1": "London Road",
    "address2": "",
    "city": "Harlow",
    "country": "GB",
    "postcode": "CM17 9NA",
    "latitude": 51.7735531,
    "longitude": 0.1332885
  },
  "7216": {
    "org_id": 23324,
    "name": "ChunkyChips Data Centre",
    "address1": "Carnival Business Park",
    "address2": "",
    "city": "Basildon",
    "country": "GB",
    "postcode": "SS14 3WN",
    "latitude": 51.583632,
    "longitude": 0.465743
  },
  "7425": {
    "org_id": 491,
    "name": "NTT London 1 Data Center (LON1)",
    "address1": "Yew Tree Avenue",
    "address2": "",
    "city": "Dagenham",
    "country": "GB",
    "postcode": "RM10 7FN",
    "latitude": 51.5457946,
    "longitude": 0.1671284
  },
  "7500": {
    "org_id": 697,
    "name": "Sungard AS London Technology Centre",
    "address1": "Unit B, Heathrow Corporate Park",
    "address2": "Green Lane",
    "city": "Hounslow",
    "country": "GB",
    "postcode": "TW4 6ER",
    "latitude": 51.467366,
    "longitude": -0.399428
  },
  "8034": {
    "org_id": 2427,
    "name": "DC14-Leeds",
    "address1": "Seacroft Ring Road",
    "address2": "",
    "city": "Leeds",
    "country": "GB",
    "postcode": "LS14 2AQ",
    "latitude": 53.8259403,
    "longitude": -1.457785
  },
  "8035": {
    "org_id": 10606,
    "name": "Creslow Park",
    "address1": "Creslow Park",
    "address2": "Whitchurch",
    "city": "Aylesbury",
    "country": "GB",
    "postcode": "HP22 4EH",
    "latitude": 51.889468,
    "longitude": -0.822904
  },
  "8078": {
    "org_id": 12974,
    "name": "Ark Data Centres - Cody Park - A9, A101, A102, A103, A104, A105",
    "address1": "Old Ively Rd",
    "address2": "",
    "city": "Farnborough",
    "country": "GB",
    "postcode": "GU14 OLL",
    "latitude": null,
    "longitude": null
  },
  "8381": {
    "org_id": 25675,
    "name": "IP House Data Centre",
    "address1": "20 Lanrick Road",
    "address2": "",
    "city": "London",
    "country": "GB",
    "postcode": "E14 0JF",
    "latitude": 51.515332,
    "longitude": 0.002497
  },
  "8389": {
    "org_id": 25688,
    "name": "Stellium 1",
    "address1": "9 Cobalt Park Way",
    "address2": "Cobalt Business Park",
    "city": "Newcastle",
    "country": "GB",
    "postcode": "NE28 9EJ",
    "latitude": 55.016869,
    "longitude": -1.500107
  },
  "8390": {
    "org_id": 25688,
    "name": "Stellium 2 & 3",
    "address1": "9 Cobalt Park Way",
    "address2": "Cobalt Business Park",
    "city": "Newcastle",
    "country": "GB",
    "postcode": "NE28 9EJ",
    "latitude": 55.016869,
    "longitude": -1.500107
  },
  "8445": {
    "org_id": 142,
    "name": "Timico - Telford (TEL)",
    "address1": "Timico Limited",
    "address2": "Hortonwood 37, Donnington",
    "city": "Telford",
    "country": "GB",
    "postcode": "TF1 7GT",
    "latitude": 52.719444,
    "longitude": -2.456604
  },
  "8447": {
    "org_id": 142,
    "name": "Timico - Newport (NPT)",
    "address1": "Timico Limited",
    "address2": "Audley Avenue Industrial Estate",
    "city": "Newport",
    "country": "GB",
    "postcode": "TF10 7BX",
    "latitude": 52.762453,
    "longitude": -2.364986
  },
  "8628": {
    "org_id": 26163,
    "name": "Datacenta DIP",
    "address1": "Q.20",
    "address2": "Dorset Innovation Park",
    "city": "Winfrith Newburgh",
    "country": "GB",
    "postcode": "DT2 8ZB",
    "latitude": 50.681852,
    "longitude": -2.256535
  },
  "8825": {
    "org_id": 1813,
    "name": "aql DC3",
    "address1": "aql",
    "address2": "Salem Place",
    "city": "Leeds",
    "country": "GB",
    "postcode": "LS10 1JW",
    "latitude": 53.7931,
    "longitude": -1.540874
  },
  "8872": {
    "org_id": 2680,
    "name": "DataBank London (LHR1)",
    "address1": "Unit 4, Westgate Estate, Staines Road",
    "address2": "",
    "city": "Feltham",
    "country": "GB",
    "postcode": "TW14 8RS",
    "latitude": 51.447068,
    "longitude": -0.453265
  },
  "8983": {
    "org_id": 17528,
    "name": "Netwise London East (NLE)",
    "address1": "Unit 6 Datapoint Business Centre",
    "address2": "South Crescent",
    "city": "Canning Town",
    "country": "GB",
    "postcode": "E16 4TL",
    "latitude": 51.520561,
    "longitude": -0.00121
  },
  "9031": {
    "org_id": 491,
    "name": "NTT Hemel Hempstead 1 Data Center (HH1)",
    "address1": "3 Centro, Boundary Way",
    "address2": "",
    "city": "Hemel Hempstead",
    "country": "GB",
    "postcode": "HP2 7SU",
    "latitude": 51.764199,
    "longitude": -0.434502
  },
  "9032": {
    "org_id": 491,
    "name": "NTT Hemel Hempstead 2 Data Center (HH2)",
    "address1": "150 Maylands Avenue",
    "address2": "",
    "city": "Hemel Hempstead",
    "country": "GB",
    "postcode": "HP2 7DF",
    "latitude": 51.764983,
    "longitude": -0.442118
  },
  "9033": {
    "org_id": 491,
    "name": "NTT Hemel Hempstead 3 Data Center (HH3)",
    "address1": "Campus, Spring Way",
    "address2": "",
    "city": "Hemel Hempstead",
    "country": "GB",
    "postcode": "HP2 7TN",
    "latitude": 51.761875,
    "longitude": -0.436678
  },
  "9034": {
    "org_id": 491,
    "name": "NTT Slough 2 Data Center (SL2)",
    "address1": "670 Ajax Avenue",
    "address2": "",
    "city": "Slough,",
    "country": "GB",
    "postcode": "SL1 4BG",
    "latitude": 51.516811,
    "longitude": -0.615687
  },
  "9035": {
    "org_id": 491,
    "name": "NTT Slough 3 Data Center (SL3)",
    "address1": "665 Ajax Avenue",
    "address2": "",
    "city": "Slough",
    "country": "GB",
    "postcode": "SL1 4BG",
    "latitude": 51.517091,
    "longitude": -0.616027
  },
  "9234": {
    "org_id": 27246,
    "name": "Legend Data Centres",
    "address1": "The Legend Building",
    "address2": "173 Sunbridge Road",
    "city": "Bradford",
    "country": "GB",
    "postcode": "BD1 2HB",
    "latitude": 53.795297,
    "longitude": -1.762567
  },
  "9310": {
    "org_id": 27473,
    "name": "Prescient Data Centres Northern Ireland",
    "address1": "Atlantic Link Enterprise Campus",
    "address2": "Portstewart Rd",
    "city": "Coleraine",
    "country": "GB",
    "postcode": "BT52 1FA",
    "latitude": 55.146682,
    "longitude": -6.676148
  },
  "9361": {
    "org_id": 27571,
    "name": "UK Servers Coventry",
    "address1": "Unit 21 West Park",
    "address2": "211 Torrington Ave",
    "city": "Coventry",
    "country": "GB",
    "postcode": "CV4 9AP",
    "latitude": 52.39782,
    "longitude": -1.579327
  },
  "9362": {
    "org_id": 27577,
    "name": "ABStation",
    "address1": "Unit 50, New Lydenburg Commercial Estate",
    "address2": "New Lydenburg Street",
    "city": "Greenwich",
    "country": "GB",
    "postcode": "SE7 8NE",
    "latitude": 51.491884,
    "longitude": 0.035515
  },
  "9751": {
    "org_id": 17639,
    "name": "Keppel Data Centres | Cardiff Data Centre",
    "address1": "Ty Cynnal, Dunleavy Drive, Celtic Gateway, Cardiff CF110SW, United Kingdom",
    "address2": "",
    "city": "Cardiff",
    "country": "GB",
    "postcode": "CF110SW",
    "latitude": 51.452221,
    "longitude": -3.185821
  },
  "9888": {
    "org_id": 697,
    "name": "Sungard AS Elland TC4",
    "address1": "Unit J1, Lowfields Business Park",
    "address2": "Lowfields Way",
    "city": "Elland",
    "country": "GB",
    "postcode": "HX5 9DA",
    "latitude": 53.693287,
    "longitude": -1.821861
  },
  "10105": {
    "org_id": 18828,
    "name": "Lincoln Rackhouse London",
    "address1": "Stanhope Rd",
    "address2": "",
    "city": "Camberley",
    "country": "GB",
    "postcode": "GU15",
    "latitude": 51.33263,
    "longitude": -0.768148
  },
  "10333": {
    "org_id": 7625,
    "name": "CyrusOne London 3",
    "address1": "700 Stirling Rd",
    "address2": "",
    "city": "Slough",
    "country": "GB",
    "postcode": "SL1",
    "latitude": 51.525984,
    "longitude": -0.626992
  },
  "10334": {
    "org_id": 7625,
    "name": "CyrusOne London 4",
    "address1": "225 Bath Rd",
    "address2": "",
    "city": "Slough",
    "country": "GB",
    "postcode": "SL1",
    "latitude": 51.516766,
    "longitude": -0.627562
  },
  "10335": {
    "org_id": 7625,
    "name": "CyrusOne London 5",
    "address1": "225 Bath Rd",
    "address2": "",
    "city": "Slough",
    "country": "GB",
    "postcode": "SL1",
    "latitude": 51.516766,
    "longitude": -0.627562
  },
  "10342": {
    "org_id": 5459,
    "name": "China Mobile International - London DC",
    "address1": "535 Ipswich Rd",
    "address2": "",
    "city": "Slough",
    "country": "GB",
    "postcode": "SL1",
    "latitude": 51.519879,
    "longitude": -0.628506
  },
  "10409": {
    "org_id": 365,
    "name": "Cogent London CDC",
    "address1": "20 Mastmaker Road",
    "address2": "Isle of Dogs",
    "city": "London",
    "country": "GB",
    "postcode": "E14 9UB",
    "latitude": 51.499713,
    "longitude": -0.021387
  },
  "10595": {
    "org_id": 29396,
    "name": "SDC Colchester1",
    "address1": "890 The Crescent",
    "address2": "",
    "city": "Colchester",
    "country": "GB",
    "postcode": "CO4",
    "latitude": 51.923805,
    "longitude": 0.921661
  },
  "10831": {
    "org_id": 30156,
    "name": "Navisite Woking UK",
    "address1": "Unit 21, Goldsworth Park Trading Estate, Kestrel Way",
    "address2": "",
    "city": "Woking Surrey",
    "country": "GB",
    "postcode": "GU21 3BA",
    "latitude": 51.323239,
    "longitude": -0.586281
  },
  "10832": {
    "org_id": 30156,
    "name": "Navisite Redhill UK",
    "address1": "3 Foxboro Business Park",
    "address2": "St. Anne\u2019s Boulevard",
    "city": "Redhill, Surrey",
    "country": "GB",
    "postcode": "RH1 1AX",
    "latitude": 51.24757,
    "longitude": -0.157112
  },
  "11078": {
    "org_id": 14237,
    "name": "HA Hosting DC2",
    "address1": "Holbrook Commerce Park",
    "address2": "",
    "city": "Sheffield",
    "country": "GB",
    "postcode": "S20 3FJ",
    "latitude": 53.333519,
    "longitude": -1.33988
  },
  "11090": {
    "org_id": 14237,
    "name": "HA Hosting DC3",
    "address1": "Merryhills Enterprise Park",
    "address2": "",
    "city": "Wolverhampton",
    "country": "GB",
    "postcode": "WV10 9TJ",
    "latitude": 52.601611,
    "longitude": -2.110311
  },
  "11296": {
    "org_id": 491,
    "name": "NTT Hemel Hempstead 4 Data Center (HH4)",
    "address1": "1 Blossom Way",
    "address2": "Hemel Hempstead",
    "city": "Hemel Hempstead",
    "country": "GB",
    "postcode": "HP2 4ZB",
    "latitude": 51.757909,
    "longitude": -0.43108
  },
  "11352": {
    "org_id": 30744,
    "name": "DSM SIBSON UK",
    "address1": "DSM Group",
    "address2": "Sibson Airfield",
    "city": "Peterborough",
    "country": "GB",
    "postcode": "PE8 6NE",
    "latitude": 52.55425,
    "longitude": -0.390896
  },
  "11551": {
    "org_id": 31240,
    "name": "The Portal Data Centre (Flexiscale DC 1)",
    "address1": "Portal Retail & Business Park",
    "address2": "Queens Drive",
    "city": "Nottingham",
    "country": "GB",
    "postcode": "NG2 1AL",
    "latitude": 52.943818,
    "longitude": -1.15762
  },
  "11676": {
    "org_id": 31498,
    "name": "EXA Datacenter Bracknell",
    "address1": "St. James House",
    "address2": "",
    "city": "Bracknell",
    "country": "GB",
    "postcode": "RG12 8 TH",
    "latitude": 51.413006,
    "longitude": -0.765381
  },
  "11678": {
    "org_id": 31498,
    "name": "EXA Datacenter Hoddesdon",
    "address1": "Geddings Road 7",
    "address2": "",
    "city": "Hoddesdon",
    "country": "GB",
    "postcode": "EN11 0NT",
    "latitude": 51.759766,
    "longitude": -0.002959
  },
  "11865": {
    "org_id": 30458,
    "name": "AtlasEdge DC Leeds 1",
    "address1": "Cornelius House",
    "address2": "Gelderd Close",
    "city": "Leeds",
    "country": "GB",
    "postcode": "LS12 6DS",
    "latitude": 53.779555,
    "longitude": -1.583439
  },
  "11899": {
    "org_id": 7431,
    "name": "Angel House",
    "address1": "Angel House",
    "address2": "Chester Le Street",
    "city": "Durham",
    "country": "GB",
    "postcode": "DH2 1AQ",
    "latitude": null,
    "longitude": null
  },
  "11969": {
    "org_id": 31498,
    "name": "EXA Datacenter London (Citi)",
    "address1": "25 Canada Square",
    "address2": "London",
    "city": "London",
    "country": "GB",
    "postcode": "E14 5LQ",
    "latitude": 51.504002,
    "longitude": -0.017775
  },
  "11970": {
    "org_id": 31498,
    "name": "EXA Datacenter London (GS2 London East)",
    "address1": "3 Nutmeg Lane",
    "address2": "London",
    "city": "London",
    "country": "GB",
    "postcode": "E14 2AX",
    "latitude": 51.510985,
    "longitude": -0.003494
  },
  "11977": {
    "org_id": 31498,
    "name": "EXA Edge DC Peterborough",
    "address1": "Wainman Road",
    "address2": "",
    "city": "Peterborough",
    "country": "GB",
    "postcode": "PE2 7BU",
    "latitude": 52.5538887,
    "longitude": -0.2654737
  },
  "11978": {
    "org_id": 31498,
    "name": "EXA Edge DC Wherstead",
    "address1": "Park Farm",
    "address2": "",
    "city": "Wherstead",
    "country": "GB",
    "postcode": "IP9 2AF",
    "latitude": null,
    "longitude": null
  },
  "11979": {
    "org_id": 31498,
    "name": "EXA Edge DC Wickford",
    "address1": "Moorlands Industrial Estate",
    "address2": "Tile Works Lane, South Rettendon",
    "city": "Wickford",
    "country": "GB",
    "postcode": "CM3 8HB",
    "latitude": 51.656531,
    "longitude": 0.534204
  },
  "12045": {
    "org_id": 7,
    "name": "Telehouse - London (Docklands South)",
    "address1": "1 Blackwall Way",
    "address2": "Paul Julius Close",
    "city": "London",
    "country": "GB",
    "postcode": "E14 2EH",
    "latitude": 51.507041,
    "longitude": -0.00339
  },
  "12221": {
    "org_id": 32362,
    "name": "Cloud Innovation Poole Data Center",
    "address1": "Unit 6, The Concept Center",
    "address2": "Innovation Close",
    "city": "Poole",
    "country": "GB",
    "postcode": "BH12 4QD",
    "latitude": null,
    "longitude": null
  },
  "12309": {
    "org_id": 2,
    "name": "Equinix MA5 - Manchester",
    "address1": "Unit 2 Agecroft Commerce Park",
    "address2": "4 Firedamp Way",
    "city": "Swinton",
    "country": "GB",
    "postcode": "M27 8BX",
    "latitude": 53.504022,
    "longitude": -2.296669
  },
  "12371": {
    "org_id": 13359,
    "name": "Baltic Bubble",
    "address1": "BALTIC BROADBAND LTD",
    "address2": "King Edward Industrial Estate",
    "city": "Liverpool",
    "country": "GB",
    "postcode": "L3 7HJ",
    "latitude": 53.411744,
    "longitude": -2.998568
  },
  "12372": {
    "org_id": 14113,
    "name": "IX Liverpool - MICT",
    "address1": "34 Norfolk Street",
    "address2": "",
    "city": "Liverpool",
    "country": "GB",
    "postcode": "L1 0BE",
    "latitude": 53.396344,
    "longitude": -2.980623
  },
  "12506": {
    "org_id": 27176,
    "name": "Servacus DC02",
    "address1": "Servacus",
    "address2": "",
    "city": "Kettering",
    "country": "GB",
    "postcode": "NN14 1UE",
    "latitude": 52.422201,
    "longitude": -0.802249
  },
  "12820": {
    "org_id": 29396,
    "name": "SDC Hosting and Support Colchester1",
    "address1": "890 The Crescent",
    "address2": "Colchester Business Park",
    "city": "Colchester",
    "country": "GB",
    "postcode": "CO4 9YQ",
    "latitude": 51.923512,
    "longitude": 0.921634
  },
  "12997": {
    "org_id": 5783,
    "name": "Custodian CDC Dartford DA2",
    "address1": "CUSTODIAN D C",
    "address2": "Newtons Court",
    "city": "Dartford",
    "country": "GB",
    "postcode": "DA2 6QL",
    "latitude": 51.453326,
    "longitude": 0.257853
  },
  "13025": {
    "org_id": 17600,
    "name": "Proximity Edge 8 Birmingham",
    "address1": "Westley Street",
    "address2": "",
    "city": "Birmingham",
    "country": "GB",
    "postcode": "B9 4ER",
    "latitude": 52.4772548,
    "longitude": -1.876782
  },
  "13026": {
    "org_id": 17600,
    "name": "Proximity Edge 10 Milton Keynes",
    "address1": "1 Brick Close",
    "address2": "",
    "city": "Milton Keynes",
    "country": "GB",
    "postcode": "MK11 3JB",
    "latitude": 52.042351,
    "longitude": -0.819358
  },
  "13073": {
    "org_id": 17600,
    "name": "Proximity Edge 1 Nottingham",
    "address1": "1 Bennerley Road",
    "address2": "Blenheim Industrial Estate",
    "city": "Nottingham",
    "country": "GB",
    "postcode": "NG6 8UY",
    "latitude": 53.006759,
    "longitude": -1.213003
  },
  "13074": {
    "org_id": 17600,
    "name": "Proximity Edge 4 Chester",
    "address1": "Dunkirk Trading estate",
    "address2": "Chester Gates",
    "city": "Chester",
    "country": "GB",
    "postcode": "CH1 6LT",
    "latitude": 53.245819,
    "longitude": -2.935048
  },
  "13075": {
    "org_id": 17600,
    "name": "Proximity Edge 9 Bristol",
    "address1": "1120 Park Avenue",
    "address2": "Aztec West, Almondsbury",
    "city": "Bristol",
    "country": "GB",
    "postcode": "BS32 4SX",
    "latitude": 51.541255,
    "longitude": -2.578778
  },
  "13091": {
    "org_id": 14799,
    "name": "VeloxServ DC3 - Redditch",
    "address1": "Prospect House",
    "address2": "Fishing Line Road",
    "city": "Redditch",
    "country": "GB",
    "postcode": "B97 6EW",
    "latitude": 52.310787,
    "longitude": -1.936793
  },
  "13340": {
    "org_id": 7980,
    "name": "Pulsant Manchester",
    "address1": "Cobra Court",
    "address2": "Stretford",
    "city": "Manchester",
    "country": "GB",
    "postcode": "M32 0QT",
    "latitude": 53.46131,
    "longitude": -2.324106
  },
  "438": {
    "org_id": 782,
    "name": "Synergy House Manchester",
    "address1": "Pencroft Way",
    "address2": "1 Synergy House, Manchester Science Park",
    "city": "Manchester",
    "country": "GB",
    "postcode": "M15 6SY",
    "latitude": 53.462386,
    "longitude": -2.2369371
  },
  "1009": {
    "org_id": 11051,
    "name": "Reliance Skewjack",
    "address1": "B3315, ",
    "address2": "",
    "city": "St Levant",
    "country": "GB",
    "postcode": "TR 19 6NB",
    "latitude": 50.0421534,
    "longitude": -5.660741
  },
  "1027": {
    "org_id": 3844,
    "name": "VIRTUS LONDON1 (Enfield)",
    "address1": "Unit 3, Trade City, Crown Road",
    "address2": "Enfield",
    "city": "London",
    "country": "GB",
    "postcode": "EN1 1TX",
    "latitude": 51.6516657,
    "longitude": -0.0535249
  },
  "1548": {
    "org_id": 8100,
    "name": "NGD Newport",
    "address1": "Celtic Way",
    "address2": "Duffryn",
    "city": "Newport",
    "country": "GB",
    "postcode": "NP10 8BE",
    "latitude": 51.5534127,
    "longitude": -3.0373415
  },
  "1683": {
    "org_id": 24568,
    "name": "ANS - MAN5",
    "address1": "Unit 19 Blackmore Road",
    "address2": "Cobra Court",
    "city": "Manchester",
    "country": "GB",
    "postcode": "M32 0QY",
    "latitude": 53.460558,
    "longitude": -2.3238893
  },
  "1684": {
    "org_id": 24568,
    "name": "ANS - MAN6",
    "address1": "Unit 20a & 20b Blackmore Road",
    "address2": "Cobra Court",
    "city": "Manchester",
    "country": "GB",
    "postcode": "M32 0QY",
    "latitude": 53.460558,
    "longitude": -2.3238893
  },
  "1793": {
    "org_id": 73,
    "name": "Interxion London (Redhill)",
    "address1": "3 Foxboro Business Park",
    "address2": "St. Anne\u2019s Boulevard",
    "city": "Redhill",
    "country": "GB",
    "postcode": "RH1 1AX",
    "latitude": 51.247171071625274, 
    "longitude": -0.15898130608029076
  },
  "1872": {
    "org_id": 9566,
    "name": "Colocker",
    "address1": "Interchange Park",
    "address2": "",
    "city": "Milton Keynes",
    "country": "GB",
    "postcode": "MK16 9PY",
    "latitude": 52.0863864,
    "longitude": -0.7237341
  },
  "2384": {
    "org_id": 1813,
    "name": "aql DC5",
    "address1": "Canon House, Apex Way",
    "address2": "",
    "city": "Leeds",
    "country": "GB",
    "postcode": "",
    "latitude": 53.79243172343359, 
    "longitude": -1.5404289947695775
  },
  "3213": {
    "org_id": 4921,
    "name": "Six Degrees Birmingham Central",
    "address1": "Garrison Technology Park",
    "address2": "Westley Street",
    "city": "Birmingham",
    "country": "GB",
    "postcode": "B9 4ER",
    "latitude": 52.4772548,
    "longitude": -1.876782
  },
  "4798": {
    "org_id": 73,
    "name": "Interxion London (Crawley)",
    "address1": "North Building, Power Avenue",
    "address2": "Manor Royal, Principal Park Campus",
    "city": "Crawley",
    "country": "GB",
    "postcode": "RH10 9BE",
    "latitude": 51.1294884,
    "longitude": -0.1780575
  },
  "5441": {
    "org_id": 16352,
    "name": "Serverfarm LON1 London",
    "address1": "Unit 4, Westgate Industrial Estate",
    "address2": "",
    "city": "Feltham",
    "country": "GB",
    "postcode": "TW14 8RS",
    "latitude": 51.44666085,
    "longitude": -0.4541237779476987
  },
  "8078": {
    "org_id": 12974,
    "name": "Ark Data Centres - Cody Park - A9, A101, A102, A103, A104, A105",
    "address1": "Old Ively Rd",
    "address2": "",
    "city": "Farnborough",
    "country": "GB",
    "postcode": "GU14 OLL",
    "latitude": 51.280921086339156, 
    "longitude": -0.7918778372948029
  },
  "11899": {
    "org_id": 7431,
    "name": "Angel House",
    "address1": "Angel House",
    "address2": "Chester Le Street",
    "city": "Durham",
    "country": "GB",
    "postcode": "DH2 1AQ",
    "latitude": 54.873193900000004,
    "longitude": -1.5862850003348075
  },
  "11978": {
    "org_id": 31498,
    "name": "EXA Edge DC Wherstead",
    "address1": "Park Farm",
    "address2": "",
    "city": "Wherstead",
    "country": "GB",
    "postcode": "IP9 2AF",
    "latitude": 52.0222998,
    "longitude": 1.14246
  },
  "12221": {
    "org_id": 32362,
    "name": "Cloud Innovation Poole Data Center",
    "address1": "Unit 6, The Concept Center",
    "address2": "Innovation Close",
    "city": "Poole",
    "country": "GB",
    "postcode": "BH12 4QD",
    "latitude": 50.7431027,
    "longitude": -1.9529965
  }
}
